[{"uid":"50cb2d9d3c79824b","name":"userCreatedSuccessfully()","time":{"start":1738077035869,"stop":1738077036123,"duration":254},"status":"passed","severity":"normal"},{"uid":"caacc35155c81d02","name":"searchHotelByCoordinate(Hotels) [3] Hotels.HOTEL_GRAND(hotelName=Grand Hotel Bernardin, locationName=Portoroz, Slovenia, locationId=3035, lat=45.51702, lon=13.5697)","time":{"start":1738077037046,"stop":1738077042975,"duration":5929},"status":"passed","severity":"normal"},{"uid":"2a6714000dceba15","name":"checkUserAvatarAndEmail()","time":{"start":1738077036170,"stop":1738077036797,"duration":627},"status":"passed","severity":"normal"},{"uid":"c4f6ec3800a45b69","name":"displayHotelPriceWhenRequiredParameterIsMissing()","time":{"start":1738077032898,"stop":1738077035751,"duration":2853},"status":"passed","severity":"normal"},{"uid":"6f3a1c2cf9d60a48","name":"userLoggedInSuccessfully()","time":{"start":1738077032901,"stop":1738077035751,"duration":2850},"status":"passed","severity":"normal"},{"uid":"e740c74f0c528b0b","name":"userLoginWithoutPassword()","time":{"start":1738077036129,"stop":1738077036783,"duration":654},"status":"passed","severity":"normal"},{"uid":"a6139cfa5008c87a","name":"displayHotelPriceWhenLocationIdProvided(Integer, List, Integer) [2] 2696, [Hotels.HOTEL_GREEN_GARDEN(hotelName=Green Garden Suites Hotel, locationName=Alanya, Turkey, locationId=2696, lat=36.545233, lon=31.992696), Hotels.HOTEL_HARMONY(hotelName=Harmony Butik Otel, locationName=Alanya, Turkey, locationId=2696, lat=36.545233, lon=31.992696), Hotels.HOTEL_SUNWAY(hotelName=Sunway Apart Hotel, locationName=Alanya, Turkey, locationId=2696, lat=36.545233, lon=31.992696), Hotels.HOTEL_MUSTI(hotelName=Musti Apart Hotel, locationName=Alanya, Turkey, locationId=2696, lat=36.545233, lon=31…, 7","time":{"start":1738077036148,"stop":1738077036825,"duration":677},"status":"passed","severity":"normal"},{"uid":"459a02f9cc469bcb","name":"searchHotelWithEmptyQuery(String) [2] ","time":{"start":1738077036167,"stop":1738077036421,"duration":254},"status":"passed","severity":"normal"},{"uid":"2b3ff945a04cb0d1","name":"displayHotelPriceWhenLocationNameProvided(String, List, Integer) [1] Valencia, [Hotels.HOTEL_LAS_ARENAS(hotelName=Las Arenas Balneario Resort, locationName=Valencia, Spain, locationId=4164, lat=39.469752, lon=-0.377387), Hotels.HOTEL_EUROSTARS(hotelName=Eurostars Rey Don Jaime, locationName=Valencia, Spain, locationId=4164, lat=39.469752, lon=-0.377387), Hotels.HOTEL_MALCOM(hotelName=Hotel Malcom and Barret, locationName=Valencia, Spain, locationId=4164, lat=39.469752, lon=-0.377387), Hotels.HOTEL_VENECIA(hotelName=Venecia Plaza Centro, locationName=Valencia, Spain, locationId=4164, …, 1","time":{"start":1738077036446,"stop":1738077036784,"duration":338},"status":"passed","severity":"normal"},{"uid":"3c6f0cb85c829b8e","name":"userRegistrationWithoutPassword()","time":{"start":1738077035920,"stop":1738077036158,"duration":238},"status":"passed","severity":"normal"},{"uid":"afab9ddcefe38a6","name":"displayHotelPriceWhenLocationNameProvided(String, List, Integer) [2] Alanya, [Hotels.HOTEL_GREEN_GARDEN(hotelName=Green Garden Suites Hotel, locationName=Alanya, Turkey, locationId=2696, lat=36.545233, lon=31.992696), Hotels.HOTEL_HARMONY(hotelName=Harmony Butik Otel, locationName=Alanya, Turkey, locationId=2696, lat=36.545233, lon=31.992696), Hotels.HOTEL_SUNWAY(hotelName=Sunway Apart Hotel, locationName=Alanya, Turkey, locationId=2696, lat=36.545233, lon=31.992696), Hotels.HOTEL_MUSTI(hotelName=Musti Apart Hotel, locationName=Alanya, Turkey, locationId=2696, lat=36.545233, lon=31…, 14","time":{"start":1738077036789,"stop":1738077037130,"duration":341},"status":"passed","severity":"normal"},{"uid":"aacdc3366cd260bf","name":"checkColorElementsSizePerPage()","time":{"start":1738077035833,"stop":1738077035914,"duration":81},"status":"passed","severity":"normal"},{"uid":"846bdcddc3b5e161","name":"userRegisteredSuccessfully()","time":{"start":1738077036789,"stop":1738077037030,"duration":241},"status":"passed","severity":"normal"},{"uid":"1449b1226fc9efa2","name":"checkHotelDataForPastPeriod()","time":{"start":1738077035832,"stop":1738077036440,"duration":608},"status":"passed","severity":"normal"},{"uid":"ed32fbfd742c9651","name":"searchHotelByCoordinate(Hotels) [2] Hotels.HOTEL_TAC_PREMIER(hotelName=Tac Premier Hotel & Spa, locationName=Alanya, Turkey, locationId=2696, lat=36.54899, lon=31.98159)","time":{"start":1738077036902,"stop":1738077038193,"duration":1291},"status":"passed","severity":"normal"},{"uid":"27af7685716d1e5e","name":"searchHotelByName(String, String) [3] Grand Hotel Bernardin, Portoroz, Slovenia","time":{"start":1738077036428,"stop":1738077036665,"duration":237},"status":"passed","severity":"normal"},{"uid":"5c5e96965d438b69","name":"searchHotelByName(String, String) [2] Tac Premier Hotel & Spa, Alanya, Turkey","time":{"start":1738077036670,"stop":1738077036898,"duration":228},"status":"passed","severity":"normal"},{"uid":"2e89dad15c72b91c","name":"searchHotelWithEmptyQuery(String) [1] null","time":{"start":1738077035848,"stop":1738077036163,"duration":315},"status":"passed","severity":"normal"},{"uid":"a2952055984b4f4c","name":"searchHotelByName(String, String) [1] Hotel Valencia Center, Valencia, Spain","time":{"start":1738077036828,"stop":1738077037087,"duration":259},"status":"passed","severity":"normal"},{"uid":"ba08967bff249019","name":"checkColorsSortedYears()","time":{"start":1738077032897,"stop":1738077035750,"duration":2853},"status":"passed","severity":"normal"},{"uid":"3d75fe40b30189e7","name":"searchHotelWhenRequiredParameterIsMissing()","time":{"start":1738077032897,"stop":1738077035752,"duration":2855},"status":"passed","severity":"normal"},{"uid":"ab533a8dcc4be51e","name":"checkFailing()","time":{"start":1738077043020,"stop":1738077043022,"duration":2},"status":"failed","severity":"normal"},{"uid":"cce29a03d0e5009c","name":"searchHotelByCoordinate(Hotels) [1] Hotels.HOTEL_MILANO(hotelName=Milano Hotel, locationName=Bourgas, Bulgaria, locationId=609, lat=42.51981, lon=27.46851)","time":{"start":1738077032964,"stop":1738077040447,"duration":7483},"status":"passed","severity":"normal"},{"uid":"4fbe756490993b94","name":"displayHotelPriceWhenLocationIdProvided(Integer, List, Integer) [1] 4164, [Hotels.HOTEL_LAS_ARENAS(hotelName=Las Arenas Balneario Resort, locationName=Valencia, Spain, locationId=4164, lat=39.469752, lon=-0.377387), Hotels.HOTEL_EUROSTARS(hotelName=Eurostars Rey Don Jaime, locationName=Valencia, Spain, locationId=4164, lat=39.469752, lon=-0.377387), Hotels.HOTEL_MALCOM(hotelName=Hotel Malcom and Barret, locationName=Valencia, Spain, locationId=4164, lat=39.469752, lon=-0.377387), Hotels.HOTEL_VENECIA(hotelName=Venecia Plaza Centro, locationName=Valencia, Spain, locationId=4164, …, 1","time":{"start":1738077032897,"stop":1738077036145,"duration":3248},"status":"passed","severity":"normal"}]